{
  "Logging": {
    "LogLevel": {
      "Default": "Information",
      "Microsoft.AspNetCore": "Warning"
    }
  },

  "AllowedHosts": "*",
  "ConnectionString": {
    "DefaultConnection": "Server=(localdb)\\MSSQLLocalDB;Database=LastMileDB;Trusted_Connection=True;TrustServerCertificate=True;Integrated Security=True;MultipleActiveResultSets=True;"
  },
  "PincodeSettings": {
    "Locations": {
      "600079": {
        "Lat": "13.089400",
        "Lon": "80.278900",
        "Name": "Sowcarpet"
      },
      "600084": {
        "Lat": "13.089700",
        "Lon": "80.252300",
        "Name": "Purasawalkam"
      },
      "600002": {
        "Lat": "13.064500",
        "Lon": "80.258800",
        "Name": "Pudupet"
      },
      "600003": {
        "Lat": "13.077300",
        "Lon": "80.275800",
        "Name": "Park Town"
      },
      "600004": {
        "Lat": "13.038400",
        "Lon": "80.270000",
        "Name": "Mylapore"
      },
      "600005": {
        "Lat": "13.063700",
        "Lon": "80.281700",
        "Name": "Chepauk"
      },
      "600008": {
        "Lat": "13.073200",
        "Lon": "80.260900",
        "Name": "Egmore"
      },
      "600100": {
        "Lat": "12.919600",
        "Lon": "80.186400",
        "Name": "Medavakkam"
      },
      "600020": {
        "Lat": "13.007200",
        "Lon": "80.258300",
        "Name": "Adyar"
      },
      "600017": {
        "Lat": "13.042700",
        "Lon": "80.237500",
        "Name": "T Nagar"
      },
      "600034": {
        "Lat": "13.063500",
        "Lon": "80.243500",
        "Name": "Nungambakkam"
      },
      "600018": {
        "Lat": "13.033600",
        "Lon": "80.250500",
        "Name": "Alwarpet"
      },
      "600014": {
        "Lat": "13.053100",
        "Lon": "80.225400",
        "Name": "Royapettah"
      },
      "600016": {
        "Lat": "13.065000",
        "Lon": "80.260000",
        "Name": "Mambalam"
      },
      "600032": {
        "Lat": "13.005800",
        "Lon": "80.220000",
        "Name": "Guindy"
      },
      "600042": {
        "Lat": "12.980000",
        "Lon": "80.220100",
        "Name": "Velachery"
      },
      "600043": {
        "Lat": "12.967500",
        "Lon": "80.149100",
        "Name": "Pallavaram"
      },
      "600045": {
        "Lat": "12.924800",
        "Lon": "80.112700",
        "Name": "Tambaram"
      },
      "600044": {
        "Lat": "12.949900",
        "Lon": "80.146000",
        "Name": "Chromepet"
      },
      "600130": {
        "Lat": "12.835000",
        "Lon": "80.200000",
        "Name": "Navalur"
      },
      "600119": {
        "Lat": "12.896100",
        "Lon": "80.224900",
        "Name": "Sholinganallur"
      }
    }
  }
}


